{
    "type": "FeatureCollection",
    "features": [
        {
            "type": "Feature",
            "properties": {
                "name": "Pražské Pyvo",
                "venue": "Na Věnečku",
                "lanyrd_url": "http://lanyrd.com/series/praha-pyvo/",
                "pyvec": true
            },
            "geometry": {
                "type": "Point",
                "coordinates": [14.3953814, 50.0678996]
            }
        },
        {
            "type": "Feature",
            "properties": {
                "name": "Ostravské Pyvo",
                "venue": "Sport Club",
                "lanyrd_url": "http://lanyrd.com/series/ostrava-pyvo/",
                "pyvec": true
            },
            "geometry": {
                "type": "Point",
                "coordinates": [18.2862144, 49.8470913]
            }
        },
        {
            "type": "Feature",
            "properties": {
                "name": "Brněnské Pyvo + BRUG",
                "venue": "Koločava",
                "lanyrd_url": "http://lanyrd.com/series/brno-pyvo/",
                "pyvec": true
            },
            "geometry": {
                "type": "Point",
                "coordinates": [16.6025791, 49.2061889]
            }
        },
        {
            "type": "Feature",
            "properties": {
                "name": "Rubyslava + Pyvo",
                "venue": "Kafé Nervosa",
                "lanyrd_url": "http://lanyrd.com/series/rubyslava/"
            },
            "geometry": {
                "type": "Point",
                "coordinates": [17.1012218, 48.1448129]
            }
        },
        {
            "type": "Feature",
            "properties": {
                "name": "Vienna.rb",
                "venue": "Sektor5"
            },
            "geometry": {
                "type": "Point",
                "coordinates": [16.35521, 48.18649]
            }
        },
        {
            "type": "Feature",
            "properties": {
                "name": "PyUGAT",
                "venue": "Metalab"
            },
            "geometry": {
                "type": "Point",
                "coordinates": [16.35619, 48.20982]
            }
        }
    ]
}
